%time,field.header.seq,field.header.stamp,field.header.frame_id,field.orientation.x,field.orientation.y,field.orientation.z,field.orientation.w,field.orientation_covariance0,field.orientation_covariance1,field.orientation_covariance2,field.orientation_covariance3,field.orientation_covariance4,field.orientation_covariance5,field.orientation_covariance6,field.orientation_covariance7,field.orientation_covariance8,field.angular_velocity.x,field.angular_velocity.y,field.angular_velocity.z,field.angular_velocity_covariance0,field.angular_velocity_covariance1,field.angular_velocity_covariance2,field.angular_velocity_covariance3,field.angular_velocity_covariance4,field.angular_velocity_covariance5,field.angular_velocity_covariance6,field.angular_velocity_covariance7,field.angular_velocity_covariance8,field.linear_acceleration.x,field.linear_acceleration.y,field.linear_acceleration.z,field.linear_acceleration_covariance0,field.linear_acceleration_covariance1,field.linear_acceleration_covariance2,field.linear_acceleration_covariance3,field.linear_acceleration_covariance4,field.linear_acceleration_covariance5,field.linear_acceleration_covariance6,field.linear_acceleration_covariance7,field.linear_acceleration_covariance8
1.65548676634546E+018,6,1.65548676634522E+018,vectornav,0.009520429186523,0.743647336959839,-0.668498575687408,0.002767403144389,0,0,0,0,0,0,0,0,0,0.000224299757974,0.000354567775503,0.000681093719322,0.01,0,0,0,0.01,0,0,0,0.01,0.181329965591431,9.83067989349365,1.07495379447937,0.01,0,0,0,0.01,0,0,0,0.01
1.65548676637034E+018,7,1.65548676637018E+018,vectornav,0.009517693892121,0.743645370006561,-0.668500781059265,0.002770757535473,0,0,0,0,0,0,0,0,0,-9.85380902420729E-05,0.000239618122578,-0.000295332982205,0.01,0,0,0,0.01,0,0,0,0.01,0.171949774026871,9.82574844360352,1.05216884613037,0.01,0,0,0,0.01,0,0,0,0.01
1.65548676639534E+018,8,1.65548676639517E+018,vectornav,0.009507525712252,0.743646740913391,-0.668499410152435,0.002782706171274,0,0,0,0,0,0,0,0,0,-0.000188562800759,-0.000661845086142,0.000655717914924,0.01,0,0,0,0.01,0,0,0,0.01,0.172845304012299,9.81509876251221,1.05076551437378,0.01,0,0,0,0.01,0,0,0,0.01
1.65548676642061E+018,9,1.65548676642033E+018,vectornav,0.009512769989669,0.74364709854126,-0.668498992919922,0.002774432534352,0,0,0,0,0,0,0,0,0,-0.000894187949598,0.000732187880203,-0.000234582927078,0.01,0,0,0,0.01,0,0,0,0.01,0.192586287856102,9.83139038085938,1.04026317596436,0.01,0,0,0,0.01,0,0,0,0.01
1.65548676644551E+018,10,1.65548676644522E+018,vectornav,0.009517734870315,0.743647992610931,-0.668497920036316,0.002766105113551,0,0,0,0,0,0,0,0,0,0.000340579543263,0.000774553976953,0.000271165859886,0.01,0,0,0,0.01,0,0,0,0.01,0.182832911610603,9.83877754211426,1.05290460586548,0.01,0,0,0,0.01,0,0,0,0.01
1.65548676647045E+018,11,1.65548676647024E+018,vectornav,0.009523744694889,0.743647694587708,-0.668498158454895,0.002759573748335,0,0,0,0,0,0,0,0,0,9.29887755773962E-06,1.92667357623577E-05,-0.00048635317944,0.01,0,0,0,0.01,0,0,0,0.01,0.16462042927742,9.82562160491943,1.05866408348084,0.01,0,0,0,0.01,0,0,0,0.01
1.65548676649557E+018,12,1.65548676649528E+018,vectornav,0.009525272063911,0.743646323680878,-0.668499708175659,0.002756951842457,0,0,0,0,0,0,0,0,0,-0.000377843069145,0.00044660968706,-0.000122871890198,0.01,0,0,0,0.01,0,0,0,0.01,0.158206507563591,9.83904838562012,1.05451035499573,0.01,0,0,0,0.01,0,0,0,0.01
1.65548676652032E+018,13,1.65548676652017E+018,vectornav,0.00952616520226,0.743650734424591,-0.668494760990143,0.002757545793429,0,0,0,0,0,0,0,0,0,-0.001849915483035,-0.000178286107257,-0.000241964473389,0.01,0,0,0,0.01,0,0,0,0.01,0.175740495324135,9.84215450286865,1.04645240306854,0.01,0,0,0,0.01,0,0,0,0.01
1.65548676654542E+018,14,1.65548676654522E+018,vectornav,0.009525485336781,0.743649661540985,-0.668496072292328,0.002766247140244,0,0,0,0,0,0,0,0,0,0.000638346245978,5.35112340003252E-05,0.000162335170899,0.01,0,0,0,0.01,0,0,0,0.01,0.175017461180687,9.78527355194092,1.04659867286682,0.01,0,0,0,0.01,0,0,0,0.01
1.65548676657042E+018,15,1.65548676657015E+018,vectornav,0.009528235532343,0.743646144866943,-0.668499946594238,0.002768624108285,0,0,0,0,0,0,0,0,0,0.000925320666283,0.000351515598595,0.000279333209619,0.01,0,0,0,0.01,0,0,0,0.01,0.176789581775665,9.80293655395508,1.04912161827087,0.01,0,0,0,0.01,0,0,0,0.01
1.65548676659557E+018,16,1.65548676659535E+018,vectornav,0.009536984376609,0.743646919727325,-0.668498873710632,0.002764070173725,0,0,0,0,0,0,0,0,0,-0.000157520596986,-0.000407284125686,0.00015114370035,0.01,0,0,0,0.01,0,0,0,0.01,0.155866846442223,9.79603481292725,1.07412016391754,0.01,0,0,0,0.01,0,0,0,0.01
1.65548676662051E+018,17,1.65548676662024E+018,vectornav,0.009531639516354,0.743642866611481,-0.66850346326828,0.002764455974102,0,0,0,0,0,0,0,0,0,0.000575050071348,0.000117378076538,-0.000352343311533,0.01,0,0,0,0.01,0,0,0,0.01,0.180181354284287,9.8355770111084,1.04857230186462,0.01,0,0,0,0.01,0,0,0,0.01
1.65548676664556E+018,18,1.65548676664527E+018,vectornav,0.009532663971186,0.743642091751099,-0.668504297733307,0.002766869263724,0,0,0,0,0,0,0,0,0,0.001423597568646,-0.000375357223675,0.000495113665238,0.01,0,0,0,0.01,0,0,0,0.01,0.16939777135849,9.79887676239014,1.05730056762695,0.01,0,0,0,0.01,0,0,0,0.01
1.65548676667041E+018,19,1.65548676667011E+018,vectornav,0.00952429883182,0.743643999099731,-0.668502271175385,0.002768193371594,0,0,0,0,0,0,0,0,0,4.1905848775059E-05,-0.001518411096185,-0.00013698724797,0.01,0,0,0,0.01,0,0,0,0.01,0.145365491509438,9.8270320892334,1.05830800533295,0.01,0,0,0,0.01,0,0,0,0.01
1.65548676669528E+018,20,1.65548676669507E+018,vectornav,0.009543568827212,0.743643820285797,-0.668502330780029,0.002751127118245,0,0,0,0,0,0,0,0,0,0.000595097779296,0.000614829361439,0.000830532808322,0.01,0,0,0,0.01,0,0,0,0.01,0.16962668299675,9.8109827041626,1.0473176240921,0.01,0,0,0,0.01,0,0,0,0.01
1.6554867667204E+018,21,1.65548676672013E+018,vectornav,0.009546922519803,0.743651270866394,-0.668494045734406,0.002746181096882,0,0,0,0,0,0,0,0,0,-0.000564918736927,0.000398651929572,0.001061913673766,0.01,0,0,0,0.01,0,0,0,0.01,0.174959182739258,9.83566379547119,1.04700171947479,0.01,0,0,0,0.01,0,0,0,0.01
1.65548676674543E+018,22,1.65548676674518E+018,vectornav,0.009554699063301,0.743650078773499,-0.668495178222656,0.002746286801994,0,0,0,0,0,0,0,0,0,-0.000256183207966,-0.001250141765922,7.3219824116677E-05,0.01,0,0,0,0.01,0,0,0,0.01,0.15469765663147,9.81844711303711,1.04603564739227,0.01,0,0,0,0.01,0,0,0,0.01
1.65548676677046E+018,23,1.6554867667702E+018,vectornav,0.009569812566042,0.743650555610657,-0.668494522571564,0.002734332811087,0,0,0,0,0,0,0,0,0,0.000550256459974,-0.000111743574962,-0.000139048323035,0.01,0,0,0,0.01,0,0,0,0.01,0.181852594017982,9.85227680206299,1.0641165971756,0.01,0,0,0,0.01,0,0,0,0.01
1.65548676679548E+018,24,1.65548676679517E+018,vectornav,0.009557117708027,0.743651151657105,-0.668493986129761,0.002748907310888,0,0,0,0,0,0,0,0,0,-0.000335441582138,-0.000743878772482,0.000379464880098,0.01,0,0,0,0.01,0,0,0,0.01,0.162974208593369,9.84800910949707,1.05022931098938,0.01,0,0,0,0.01,0,0,0,0.01
1.65548676682051E+018,25,1.65548676682019E+018,vectornav,0.009552606381476,0.743652284145355,-0.66849273443222,0.002751329215243,0,0,0,0,0,0,0,0,0,-0.000763911404647,-0.000601910287514,0.000481752795167,0.01,0,0,0,0.01,0,0,0,0.01,0.182555049657822,9.83233165740967,1.05973696708679,0.01,0,0,0,0.01,0,0,0,0.01
1.65548676684548E+018,26,1.65548676684515E+018,vectornav,0.009547622874379,0.743653953075409,-0.668490886688232,0.002754725050181,0,0,0,0,0,0,0,0,0,-0.000849085394293,-0.000260834814981,3.54819349013269E-05,0.01,0,0,0,0.01,0,0,0,0.01,0.164366409182549,9.83899688720703,1.05441403388977,0.01,0,0,0,0.01,0,0,0,0.01
1.65548676687037E+018,27,1.65548676687015E+018,vectornav,0.009546618908644,0.743651270866394,-0.668493926525116,0.00275441724807,0,0,0,0,0,0,0,0,0,0.001096869818866,2.27265991270542E-05,0.000133804511279,0.01,0,0,0,0.01,0,0,0,0.01,0.162723645567894,9.81650543212891,1.0588299036026,0.01,0,0,0,0.01,0,0,0,0.01
1.65548676689546E+018,28,1.65548676689517E+018,vectornav,0.009549826383591,0.743659496307373,-0.668484807014465,0.002751126885414,0,0,0,0,0,0,0,0,0,-0.001015231478959,-0.000139891169965,0.000342157494742,0.01,0,0,0,0.01,0,0,0,0.01,0.161543652415276,9.80134773254395,1.04460990428925,0.01,0,0,0,0.01,0,0,0,0.01
1.65548676692039E+018,29,1.65548676692011E+018,vectornav,0.009548721835017,0.743659138679504,-0.668485224246979,0.002742469543591,0,0,0,0,0,0,0,0,0,-0.000593431235757,-0.000120035838336,-0.000870272458997,0.01,0,0,0,0.01,0,0,0,0.01,0.182156041264534,9.83218002319336,1.05992209911346,0.01,0,0,0,0.01,0,0,0,0.01
1.65548676694543E+018,30,1.6554867669452E+018,vectornav,0.009554201737046,0.743661224842072,-0.668482780456543,0.002736861584708,0,0,0,0,0,0,0,0,0,-0.000696074799635,0.000702305929735,0.000600497878622,0.01,0,0,0,0.01,0,0,0,0.01,0.185010850429535,9.81087017059326,1.0455813407898,0.01,0,0,0,0.01,0,0,0,0.01
1.65548676697037E+018,31,1.65548676697014E+018,vectornav,0.009553872048855,0.743659198284149,-0.668485105037689,0.002735856920481,0,0,0,0,0,0,0,0,0,0.000727085745893,0.000143381068483,-0.000926338601857,0.01,0,0,0,0.01,0,0,0,0.01,0.168624013662338,9.80056095123291,1.05045473575592,0.01,0,0,0,0.01,0,0,0,0.01
1.65548676699554E+018,32,1.65548676699526E+018,vectornav,0.009551404044032,0.743655323982239,-0.668489396572113,0.002738102572039,0,0,0,0,0,0,0,0,0,0.000890612544026,-8.90165101736784E-05,-0.000683608232066,0.01,0,0,0,0.01,0,0,0,0.01,0.167073577642441,9.81282997131348,1.0357940196991,0.01,0,0,0,0.01,0,0,0,0.01
1.6554867670204E+018,33,1.65548676702014E+018,vectornav,0.00954819098115,0.743657350540161,-0.668487191200256,0.002740068593994,0,0,0,0,0,0,0,0,0,0.000208064011531,-0.000378894619644,-0.000155027548317,0.01,0,0,0,0.01,0,0,0,0.01,0.175681799650192,9.82268905639648,1.06517124176025,0.01,0,0,0,0.01,0,0,0,0.01
1.65548676704556E+018,34,1.65548676704528E+018,vectornav,0.00954201631248,0.743658602237701,-0.668485820293427,0.002745162229985,0,0,0,0,0,0,0,0,0,-0.00120364036411,0.000154945999384,-0.000240504276007,0.01,0,0,0,0.01,0,0,0,0.01,0.187398418784142,9.79249000549316,1.05700206756592,0.01,0,0,0,0.01,0,0,0,0.01
1.65548676707036E+018,35,1.65548676707004E+018,vectornav,0.00953621789813,0.743657946586609,-0.668486714363098,0.002747979713604,0,0,0,0,0,0,0,0,0,-0.0005954055232,0.000441812444478,0.000120777694974,0.01,0,0,0,0.01,0,0,0,0.01,0.177218228578568,9.83841609954834,1.05222606658936,0.01,0,0,0,0.01,0,0,0,0.01
1.65548676709542E+018,36,1.65548676709508E+018,vectornav,0.009537113830447,0.743659496307373,-0.6684849858284,0.002739987336099,0,0,0,0,0,0,0,0,0,0.000229225857765,-0.000597744015977,-0.000200137030333,0.01,0,0,0,0.01,0,0,0,0.01,0.156564235687256,9.83262252807617,1.06195437908173,0.01,0,0,0,0.01,0,0,0,0.01
1.65548676712034E+018,37,1.65548676712003E+018,vectornav,0.009548920206726,0.74366295337677,-0.668481051921845,0.002726962324232,0,0,0,0,0,0,0,0,0,-0.00031246789149,0.000811754958704,0.000560593500268,0.01,0,0,0,0.01,0,0,0,0.01,0.156451925635338,9.83399772644043,1.05331325531006,0.01,0,0,0,0.01,0,0,0,0.01
1.6554867671455E+018,38,1.65548676714505E+018,vectornav,0.009547532536089,0.743664264678955,-0.668479561805725,0.002729306695983,0,0,0,0,0,0,0,0,0,0.000525845447555,0.000118001364172,0.00010832917178,0.01,0,0,0,0.01,0,0,0,0.01,0.176986917853355,9.82067203521729,1.07244062423706,0.01,0,0,0,0.01,0,0,0,0.01
1.65548676717031E+018,39,1.65548676717002E+018,vectornav,0.009535963647068,0.743664920330048,-0.668478965759277,0.002738163340837,0,0,0,0,0,0,0,0,0,4.06073086196557E-05,-0.00081621366553,0.000524497008882,0.01,0,0,0,0.01,0,0,0,0.01,0.159767359495163,9.83589553833008,1.03891122341156,0.01,0,0,0,0.01,0,0,0,0.01
1.65548676719532E+018,40,1.65548676719503E+018,vectornav,0.009542400017381,0.743666887283325,-0.668476641178131,0.002733771689236,0,0,0,0,0,0,0,0,0,-0.000253064907156,-0.000271959928796,-7.51145998947322E-05,0.01,0,0,0,0.01,0,0,0,0.01,0.156159192323685,9.78796195983887,1.05999529361725,0.01,0,0,0,0.01,0,0,0,0.01
1.65548676722031E+018,41,1.65548676722002E+018,vectornav,0.009550835937262,0.743668973445892,-0.668474316596985,0.002721117110923,0,0,0,0,0,0,0,0,0,-0.000377574528102,0.000614844495431,-0.000234827457462,0.01,0,0,0,0.01,0,0,0,0.01,0.15002304315567,9.80269336700439,1.05137872695923,0.01,0,0,0,0.01,0,0,0,0.01
1.65548676724535E+018,42,1.655486767245E+018,vectornav,0.009539638645947,0.743665874004364,-0.668477833271027,0.002726068953052,0,0,0,0,0,0,0,0,0,0.000610453658737,5.63780777156353E-05,0.000303239154164,0.01,0,0,0,0.01,0,0,0,0.01,0.175154030323029,9.83284664154053,1.05631923675537,0.01,0,0,0,0.01,0,0,0,0.01
1.6554867672703E+018,43,1.65548676726998E+018,vectornav,0.009535481221974,0.743664562702179,-0.668479382991791,0.00272488896735,0,0,0,0,0,0,0,0,0,0.000450515770353,-0.00040626572445,-0.000398685282562,0.01,0,0,0,0.01,0,0,0,0.01,0.154455691576004,9.80410957336426,1.05205607414246,0.01,0,0,0,0.01,0,0,0,0.01
1.65548676729537E+018,44,1.65548676729506E+018,vectornav,0.00954510178417,0.743662655353546,-0.668481409549713,0.002722406527027,0,0,0,0,0,0,0,0,0,-0.001177921891212,3.91995999962091E-05,0.000191041792277,0.01,0,0,0,0.01,0,0,0,0.01,0.190248996019363,9.84481239318848,1.06021392345428,0.01,0,0,0,0.01,0,0,0,0.01
1.65548676732022E+018,45,1.65548676731995E+018,vectornav,0.009560910053551,0.743660926818848,-0.668483078479767,0.002707990352064,0,0,0,0,0,0,0,0,0,-0.000138507253723,0.000727158272639,-0.00011910777539,0.01,0,0,0,0.01,0,0,0,0.01,0.178128257393837,9.82250595092773,1.06156992912292,0.01,0,0,0,0.01,0,0,0,0.01
1.65548676734517E+018,46,1.65548676734494E+018,vectornav,0.00956154987216,0.743659734725952,-0.668484508991241,0.002714417409152,0,0,0,0,0,0,0,0,0,-0.000228352029808,0.000228405697271,0.000523445778526,0.01,0,0,0,0.01,0,0,0,0.01,0.169817969202995,9.79544734954834,1.05318665504456,0.01,0,0,0,0.01,0,0,0,0.01
1.65548676737024E+018,47,1.65548676736994E+018,vectornav,0.009555979631841,0.743659615516663,-0.668484628200531,0.002726661041379,0,0,0,0,0,0,0,0,0,3.62080754712224E-05,-7.38161616027355E-05,-0.000206739117857,0.01,0,0,0,0.01,0,0,0,0.01,0.170814961194992,9.81554794311523,1.05715990066528,0.01,0,0,0,0.01,0,0,0,0.01
1.65548676739532E+018,48,1.65548676739499E+018,vectornav,0.009548343718052,0.743661999702454,-0.668482065200806,0.00273001473397,0,0,0,0,0,0,0,0,0,-0.000307944021188,-0.000389124033973,-0.001197229954414,0.01,0,0,0,0.01,0,0,0,0.01,0.173592910170555,9.86485385894775,1.07026135921478,0.01,0,0,0,0.01,0,0,0,0.01
1.65548676742026E+018,49,1.65548676741995E+018,vectornav,0.00954841915518,0.743664503097534,-0.668479323387146,0.002725627971813,0,0,0,0,0,0,0,0,0,-0.000771842722315,1.48303806781769E-05,-0.000285885122139,0.01,0,0,0,0.01,0,0,0,0.01,0.155401006340981,9.83564376831055,1.05295491218567,0.01,0,0,0,0.01,0,0,0,0.01
1.65548676744527E+018,50,1.65548676744492E+018,vectornav,0.009550246410072,0.743669092655182,-0.668474137783051,0.002719432581216,0,0,0,0,0,0,0,0,0,2.12333543458953E-05,0.000390976434574,0.0003862491576,0.01,0,0,0,0.01,0,0,0,0.01,0.167287781834602,9.80945682525635,1.05297207832336,0.01,0,0,0,0.01,0,0,0,0.01
1.65548676747014E+018,51,1.65548676746987E+018,vectornav,0.00954233109951,0.743669748306274,-0.668473541736603,0.002721391851082,0,0,0,0,0,0,0,0,0,-0.000293134653475,-0.000207358039916,0.000243614253122,0.01,0,0,0,0.01,0,0,0,0.01,0.163286149501801,9.83260631561279,1.04040253162384,0.01,0,0,0,0.01,0,0,0,0.01
1.65548676749527E+018,52,1.65548676749497E+018,vectornav,0.009544486179948,0.743671894073486,-0.668471157550812,0.002727977698669,0,0,0,0,0,0,0,0,0,0.000522958638612,0.000517506618053,0.000610907387454,0.01,0,0,0,0.01,0,0,0,0.01,0.173391193151474,9.82301712036133,1.04468703269959,0.01,0,0,0,0.01,0,0,0,0.01
1.65548676752029E+018,53,1.65548676751993E+018,vectornav,0.009544188156724,0.743672966957092,-0.668469965457916,0.002731957705691,0,0,0,0,0,0,0,0,0,-0.000294363795547,-0.001041946932673,-5.67733077332377E-05,0.01,0,0,0,0.01,0,0,0,0.01,0.17538970708847,9.84464359283447,1.06687164306641,0.01,0,0,0,0.01,0,0,0,0.01
1.65548676754513E+018,54,1.65548676754484E+018,vectornav,0.009546030312777,0.743671238422394,-0.668471872806549,0.002733507193625,0,0,0,0,0,0,0,0,0,0.000501816393808,-0.000243806047365,0.000639581587166,0.01,0,0,0,0.01,0,0,0,0.01,0.165804982185364,9.83924674987793,1.04536128044128,0.01,0,0,0,0.01,0,0,0,0.01
1.65548676757035E+018,55,1.6554867675699E+018,vectornav,0.009545298293233,0.743667602539063,-0.668475866317749,0.00274046137929,0,0,0,0,0,0,0,0,0,-0.000548086303752,-0.000407438958064,0.000241966859903,0.01,0,0,0,0.01,0,0,0,0.01,0.170229583978653,9.81918525695801,1.0389883518219,0.01,0,0,0,0.01,0,0,0,0.01
1.65548676759527E+018,56,1.65548676759496E+018,vectornav,0.009543208405375,0.743663489818573,-0.668480396270752,0.002746696816757,0,0,0,0,0,0,0,0,0,0.000366936204955,7.67528545111418E-05,0.000453154847492,0.01,0,0,0,0.01,0,0,0,0.01,0.15764194726944,9.81376361846924,1.05281722545624,0.01,0,0,0,0.01,0,0,0,0.01
1.65548676762012E+018,57,1.65548676761987E+018,vectornav,0.009538004174829,0.743659615516663,-0.668484807014465,0.002749537117779,0,0,0,0,0,0,0,0,0,0.000304838176817,-0.000230497913435,0.000162710028235,0.01,0,0,0,0.01,0,0,0,0.01,0.167313039302826,9.84685134887695,1.0523407459259,0.01,0,0,0,0.01,0,0,0,0.01
1.65548676764518E+018,58,1.65548676764487E+018,vectornav,0.009537998586893,0.743661880493164,-0.66848236322403,0.002742850454524,0,0,0,0,0,0,0,0,0,-0.000772378989495,0.000189412385225,-0.000139944779221,0.01,0,0,0,0.01,0,0,0,0.01,0.170903459191322,9.81276702880859,1.05398368835449,0.01,0,0,0,0.01,0,0,0,0.01
1.65548676767025E+018,59,1.65548676766992E+018,vectornav,0.009534201584756,0.743663251399994,-0.66848087310791,0.002746399492025,0,0,0,0,0,0,0,0,0,0.000212408893276,-0.000592063181102,0.000627215951681,0.01,0,0,0,0.01,0,0,0,0.01,0.182200267910957,9.83967781066895,1.05073726177216,0.01,0,0,0,0.01,0,0,0,0.01
1.65548676769522E+018,60,1.6554867676949E+018,vectornav,0.009532377123833,0.743660271167755,-0.668484151363373,0.002745157573372,0,0,0,0,0,0,0,0,0,-0.0004311533703,0.000553026329726,-0.000907653651666,0.01,0,0,0,0.01,0,0,0,0.01,0.180518209934235,9.81381511688232,1.0673942565918,0.01,0,0,0,0.01,0,0,0,0.01
1.6554867677202E+018,61,1.65548676771986E+018,vectornav,0.009536739438772,0.74366170167923,-0.668482542037964,0.00274505908601,0,0,0,0,0,0,0,0,0,-0.000542742316611,-0.000521743670106,-0.000349851034116,0.01,0,0,0,0.01,0,0,0,0.01,0.179872050881386,9.80918979644775,1.06343173980713,0.01,0,0,0,0.01,0,0,0,0.01
1.65548676774517E+018,62,1.65548676774485E+018,vectornav,0.009525457397103,0.743662893772125,-0.668481349945068,0.002753883833066,0,0,0,0,0,0,0,0,0,-0.001282664714381,0.001406814204529,-0.000843518762849,0.01,0,0,0,0.01,0,0,0,0.01,0.149505317211151,9.82871723175049,1.05548405647278,0.01,0,0,0,0.01,0,0,0,0.01
1.65548676777014E+018,63,1.65548676776981E+018,vectornav,0.009521464817226,0.743660748004913,-0.668483734130859,0.002754003275186,0,0,0,0,0,0,0,0,0,-0.000391904788557,0.000825956463814,-7.73430219851434E-05,0.01,0,0,0,0.01,0,0,0,0.01,0.165521919727325,9.84091377258301,1.06648278236389,0.01,0,0,0,0.01,0,0,0,0.01
1.65548676779527E+018,64,1.65548676779489E+018,vectornav,0.009524662047625,0.743659496307373,-0.668485105037689,0.002754933200777,0,0,0,0,0,0,0,0,0,-0.000150621752255,0.000299985287711,0.000294370984193,0.01,0,0,0,0.01,0,0,0,0.01,0.171900898218155,9.8197660446167,1.05277705192566,0.01,0,0,0,0.01,0,0,0,0.01
1.65548676782008E+018,65,1.65548676781977E+018,vectornav,0.009533341042697,0.743661880493164,-0.66848236322403,0.002741723088548,0,0,0,0,0,0,0,0,0,-0.001069446559995,0.001162918284535,-0.000194766325876,0.01,0,0,0,0.01,0,0,0,0.01,0.176474124193192,9.79138469696045,1.04867482185364,0.01,0,0,0,0.01,0,0,0,0.01
1.6554867678452E+018,66,1.65548676784483E+018,vectornav,0.009528835304081,0.743664503097534,-0.668479561805725,0.002738820621744,0,0,0,0,0,0,0,0,0,-0.000448750826763,-0.000926027772948,-0.000124513462652,0.01,0,0,0,0.01,0,0,0,0.01,0.17531131207943,9.84503746032715,1.09045886993408,0.01,0,0,0,0.01,0,0,0,0.01
1.6554867678701E+018,67,1.65548676786979E+018,vectornav,0.009525057859719,0.743664026260376,-0.668480098247528,0.002741073258221,0,0,0,0,0,0,0,0,0,0.000508561730385,0.000257634790614,3.80753772333264E-05,0.01,0,0,0,0.01,0,0,0,0.01,0.156785428524017,9.81491756439209,1.05690801143646,0.01,0,0,0,0.01,0,0,0,0.01
1.65548676789541E+018,68,1.65548676789501E+018,vectornav,0.009527484886348,0.743663311004639,-0.66848087310791,0.002734284847975,0,0,0,0,0,0,0,0,0,-0.00028368877247,-0.000512048602104,-0.000203783798497,0.01,0,0,0,0.01,0,0,0,0.01,0.15187019109726,9.83906745910645,1.03897213935852,0.01,0,0,0,0.01,0,0,0,0.01
1.65548676792024E+018,69,1.65548676791992E+018,vectornav,0.0095369014889,0.743662774562836,-0.668481469154358,0.002725928323343,0,0,0,0,0,0,0,0,0,0.000420478405431,-0.0002864273265,-0.000170521612745,0.01,0,0,0,0.01,0,0,0,0.01,0.177933007478714,9.84890651702881,1.01356673240662,0.01,0,0,0,0.01,0,0,0,0.01
1.6554867679452E+018,70,1.65548676794484E+018,vectornav,0.009534196928144,0.743664264678955,-0.668479740619659,0.002732277847826,0,0,0,0,0,0,0,0,0,-0.000685228267685,-0.000384946819395,0.000239719403908,0.01,0,0,0,0.01,0,0,0,0.01,0.178683057427406,9.78576374053955,1.05262851715088,0.01,0,0,0,0.01,0,0,0,0.01
1.65548676797015E+018,71,1.65548676796984E+018,vectornav,0.009535145014524,0.743661522865295,-0.668482780456543,0.002731621731073,0,0,0,0,0,0,0,0,0,0.0010220160475,-0.000633756397292,0.001051902072504,0.01,0,0,0,0.01,0,0,0,0.01,0.18540346622467,9.79948043823242,1.06400728225708,0.01,0,0,0,0.01,0,0,0,0.01
1.65548676799519E+018,72,1.65548676799483E+018,vectornav,0.009534012526274,0.743664443492889,-0.668479561805725,0.002736815484241,0,0,0,0,0,0,0,0,0,-0.000359133933671,-0.001005326863378,0.000565749360248,0.01,0,0,0,0.01,0,0,0,0.01,0.167949050664902,9.83735275268555,1.06242299079895,0.01,0,0,0,0.01,0,0,0,0.01
1.65548676802024E+018,73,1.65548676801987E+018,vectornav,0.009526269510388,0.743661463260651,-0.668482899665833,0.002735836198553,0,0,0,0,0,0,0,0,0,-7.04275735188276E-05,0.00033691409044,-0.001431258046068,0.01,0,0,0,0.01,0,0,0,0.01,0.193242013454437,9.8439884185791,1.04349160194397,0.01,0,0,0,0.01,0,0,0,0.01
1.65548676804516E+018,74,1.65548676804484E+018,vectornav,0.009520436637104,0.743664085865021,-0.668480157852173,0.002735980320722,0,0,0,0,0,0,0,0,0,2.99283710774034E-05,0.000151209300384,0.000892105686944,0.01,0,0,0,0.01,0,0,0,0.01,0.194764673709869,9.84561252593994,1.05149137973785,0.01,0,0,0,0.01,0,0,0,0.01
1.65548676807011E+018,75,1.65548676806976E+018,vectornav,0.009519134648144,0.743658721446991,-0.66848611831665,0.00273810676299,0,0,0,0,0,0,0,0,0,0.000654730945826,0.00071829603985,0.000570231408346,0.01,0,0,0,0.01,0,0,0,0.01,0.14627268910408,9.81909370422363,1.04055142402649,0.01,0,0,0,0.01,0,0,0,0.01
1.65548676809518E+018,76,1.65548676809482E+018,vectornav,0.009526246227324,0.743655920028687,-0.668489098548889,0.002730783773586,0,0,0,0,0,0,0,0,0,-9.15911950869486E-05,0.001336094690487,-5.25069190189242E-05,0.01,0,0,0,0.01,0,0,0,0.01,0.153823569417,9.84251403808594,1.03119301795959,0.01,0,0,0,0.01,0,0,0,0.01
1.6554867681202E+018,77,1.65548676811981E+018,vectornav,0.009523428976536,0.743651509284973,-0.668494045734406,0.002739228308201,0,0,0,0,0,0,0,0,0,0.000181517971214,-0.000141630880535,-0.000617114943452,0.01,0,0,0,0.01,0,0,0,0.01,0.138107314705849,9.81608200073242,1.0535808801651,0.01,0,0,0,0.01,0,0,0,0.01
1.65548676814508E+018,78,1.65548676814474E+018,vectornav,0.009518016129732,0.743649423122406,-0.668496489524841,0.002748705912381,0,0,0,0,0,0,0,0,0,0.000328193418682,-9.34966374188662E-05,0.000215447100345,0.01,0,0,0,0.01,0,0,0,0.01,0.170285284519196,9.83364868164063,1.05843532085419,0.01,0,0,0,0.01,0,0,0,0.01
1.65548676817005E+018,79,1.65548676816972E+018,vectornav,0.009521468542516,0.74364709854126,-0.668498992919922,0.00274084508419,0,0,0,0,0,0,0,0,0,0.000924952619243,-0.00060818484053,-0.000828478659969,0.01,0,0,0,0.01,0,0,0,0.01,0.165492311120033,9.84095573425293,1.05839323997498,0.01,0,0,0,0.01,0,0,0,0.01
1.65548676819531E+018,80,1.65548676819492E+018,vectornav,0.009529931470752,0.743647754192352,-0.66849821805954,0.002738771727309,0,0,0,0,0,0,0,0,0,0.000198170178919,-0.0006262678653,9.86641389317811E-05,0.01,0,0,0,0.01,0,0,0,0.01,0.179283231496811,9.82200241088867,1.073037981987,0.01,0,0,0,0.01,0,0,0,0.01
1.65548676822005E+018,81,1.65548676821968E+018,vectornav,0.009529684670269,0.743647277355194,-0.668498694896698,0.002737541217357,0,0,0,0,0,0,0,0,0,0.001201126724482,0.000259227817878,-0.000264499220066,0.01,0,0,0,0.01,0,0,0,0.01,0.167345032095909,9.81874847412109,1.0724835395813,0.01,0,0,0,0.01,0,0,0,0.01
1.65548676824504E+018,82,1.6554867682447E+018,vectornav,0.0095323799178,0.743647813796997,-0.668498039245606,0.002740401541814,0,0,0,0,0,0,0,0,0,-0.000769575999584,-4.17586416006088E-05,0.000536716368515,0.01,0,0,0,0.01,0,0,0,0.01,0.165181517601013,9.8266019821167,1.04078960418701,0.01,0,0,0,0.01,0,0,0,0.01
1.6554867682702E+018,83,1.65548676826984E+018,vectornav,0.009536564350128,0.743650317192078,-0.668495237827301,0.002732932800427,0,0,0,0,0,0,0,0,0,0.000338036450557,0.001004879130051,0.000327192887198,0.01,0,0,0,0.01,0,0,0,0.01,0.163718640804291,9.80511474609375,1.05987668037415,0.01,0,0,0,0.01,0,0,0,0.01
1.65548676829512E+018,84,1.65548676829483E+018,vectornav,0.009544875472784,0.743649780750275,-0.668495774269104,0.002720177406445,0,0,0,0,0,0,0,0,0,0.001063409028575,0.000745305093005,-0.000289090559818,0.01,0,0,0,0.01,0,0,0,0.01,0.167373195290566,9.83091926574707,1.03265404701233,0.01,0,0,0,0.01,0,0,0,0.01
1.6554867683202E+018,85,1.65548676831983E+018,vectornav,0.009543283842504,0.743651032447815,-0.668494343757629,0.002725363010541,0,0,0,0,0,0,0,0,0,-0.000690679531544,-0.000142077449709,0.000257277686615,0.01,0,0,0,0.01,0,0,0,0.01,0.191841095685959,9.80878448486328,1.0320965051651,0.01,0,0,0,0.01,0,0,0,0.01
1.65548676834503E+018,86,1.6554867683447E+018,vectornav,0.009542617946863,0.743654072284699,-0.668491005897522,0.002725146710873,0,0,0,0,0,0,0,0,0,6.69716828269884E-05,-0.000784188276157,-3.39038670063019E-05,0.01,0,0,0,0.01,0,0,0,0.01,0.153906092047691,9.80864143371582,1.05521428585053,0.01,0,0,0,0.01,0,0,0,0.01
1.65548676836997E+018,87,1.65548676836961E+018,vectornav,0.009540526196361,0.743657410144806,-0.668487310409546,0.002720785327256,0,0,0,0,0,0,0,0,0,-0.000346904562321,0.000118534313515,0.000494997773785,0.01,0,0,0,0.01,0,0,0,0.01,0.176770731806755,9.8273458480835,1.06261575222015,0.01,0,0,0,0.01,0,0,0,0.01
1.65548676839489E+018,88,1.65548676839459E+018,vectornav,0.009543742984533,0.743653655052185,-0.668491423130035,0.002720281016082,0,0,0,0,0,0,0,0,0,0.001379461260512,-0.001031561056152,0.000678978278302,0.01,0,0,0,0.01,0,0,0,0.01,0.178279832005501,9.81856822967529,1.03093409538269,0.01,0,0,0,0.01,0,0,0,0.01
1.65548676841988E+018,89,1.65548676841958E+018,vectornav,0.009539933875203,0.743650674819946,-0.668494880199432,0.002718792762607,0,0,0,0,0,0,0,0,0,0.000751293264329,-0.000229599187151,-0.000340207887348,0.01,0,0,0,0.01,0,0,0,0.01,0.163906216621399,9.88101577758789,1.03461730480194,0.01,0,0,0,0.01,0,0,0,0.01
1.65548676844504E+018,90,1.65548676844468E+018,vectornav,0.009536422789097,0.74364846944809,-0.668497264385223,0.002719150390476,0,0,0,0,0,0,0,0,0,-0.00027708732523,-0.000418946845457,0.000799494446255,0.01,0,0,0,0.01,0,0,0,0.01,0.175201445817947,9.81571960449219,1.04749965667725,0.01,0,0,0,0.01,0,0,0,0.01
1.65548676846993E+018,91,1.65548676846965E+018,vectornav,0.009536421857774,0.743656575679779,-0.668488383293152,0.002717377385125,0,0,0,0,0,0,0,0,0,-0.001368768513203,0.00076386006549,0.000453383603599,0.01,0,0,0,0.01,0,0,0,0.01,0.17108616232872,9.82903003692627,1.07510232925415,0.01,0,0,0,0.01,0,0,0,0.01
1.65548676849476E+018,92,1.65548676849452E+018,vectornav,0.009544426575303,0.743657469749451,-0.668487250804901,0.00270895473659,0,0,0,0,0,0,0,0,0,-4.42101008957252E-05,-2.84486450254917E-05,-0.000550614437088,0.01,0,0,0,0.01,0,0,0,0.01,0.151208683848381,9.84304904937744,1.03582215309143,0.01,0,0,0,0.01,0,0,0,0.01
1.65548676851979E+018,93,1.65548676851948E+018,vectornav,0.009549560025334,0.7436563372612,-0.668488383293152,0.002707217819989,0,0,0,0,0,0,0,0,0,-0.000370200141333,0.001572570297867,-0.000593726115767,0.01,0,0,0,0.01,0,0,0,0.01,0.179942160844803,9.80977249145508,1.04580020904541,0.01,0,0,0,0.01,0,0,0,0.01
1.6554867685447E+018,94,1.65548676854447E+018,vectornav,0.009548507630825,0.743656814098358,-0.668487906455994,0.002708974760026,0,0,0,0,0,0,0,0,0,0.000327606714563,-6.40226062387228E-05,0.000229062337894,0.01,0,0,0,0.01,0,0,0,0.01,0.183470323681831,9.83658981323242,1.04509055614471,0.01,0,0,0,0.01,0,0,0,0.01
1.65548676856996E+018,95,1.65548676856968E+018,vectornav,0.00954198371619,0.743657231330872,-0.66848760843277,0.002709080232307,0,0,0,0,0,0,0,0,0,-0.000545495538972,-0.000428582075983,-0.000777000503149,0.01,0,0,0,0.01,0,0,0,0.01,0.17257022857666,9.79248237609863,1.05960154533386,0.01,0,0,0,0.01,0,0,0,0.01
1.65548676859484E+018,96,1.65548676859451E+018,vectornav,0.009540182538331,0.743653833866119,-0.668491303920746,0.002710066502914,0,0,0,0,0,0,0,0,0,-0.000376204436179,-0.000394595786929,0.000959492812399,0.01,0,0,0,0.01,0,0,0,0.01,0.190009504556656,9.81140613555908,1.04506206512451,0.01,0,0,0,0.01,0,0,0,0.01
1.65548676861993E+018,97,1.65548676861958E+018,vectornav,0.009541725739837,0.743654668331146,-0.668490409851074,0.002697525545955,0,0,0,0,0,0,0,0,0,-0.000978658325039,-0.000480923103169,-0.000811581674498,0.01,0,0,0,0.01,0,0,0,0.01,0.166604056954384,9.8136625289917,1.06530737876892,0.01,0,0,0,0.01,0,0,0,0.01
1.65548676864491E+018,98,1.65548676864462E+018,vectornav,0.009534515440464,0.743654072284699,-0.668491184711456,0.002693335758522,0,0,0,0,0,0,0,0,0,0.000787720957305,-0.000350173795596,0.000521695881616,0.01,0,0,0,0.01,0,0,0,0.01,0.191706910729408,9.81644344329834,1.06106603145599,0.01,0,0,0,0.01,0,0,0,0.01
1.65548676866996E+018,99,1.65548676866961E+018,vectornav,0.009529505856335,0.743653118610382,-0.668492376804352,0.002686850726604,0,0,0,0,0,0,0,0,0,0.00058067322243,0.000237092608586,-0.001063995994627,0.01,0,0,0,0.01,0,0,0,0.01,0.157574892044067,9.80717372894287,1.04273903369904,0.01,0,0,0,0.01,0,0,0,0.01
1.65548676869479E+018,100,1.65548676869446E+018,vectornav,0.009538209997118,0.743647515773773,-0.668498575687408,0.002679112367332,0,0,0,0,0,0,0,0,0,-0.000835105078295,-0.000758897513151,-0.000616607198026,0.01,0,0,0,0.01,0,0,0,0.01,0.167176693677902,9.85074043273926,1.07083082199097,0.01,0,0,0,0.01,0,0,0,0.01
1.65548676872069E+018,101,1.65548676872035E+018,vectornav,0.009533255361021,0.743649899959564,-0.668495893478394,0.002683443250135,0,0,0,0,0,0,0,0,0,0.001000908552669,0.00016196235083,-0.000627005123533,0.01,0,0,0,0.01,0,0,0,0.01,0.177334606647491,9.83501815795898,1.065394282341,0.01,0,0,0,0.01,0,0,0,0.01
1.65548676874478E+018,102,1.65548676874448E+018,vectornav,0.009538223966956,0.743651747703552,-0.668493807315826,0.002677916083485,0,0,0,0,0,0,0,0,0,-0.000293379416689,-0.000444279285148,-3.20880208164453E-05,0.01,0,0,0,0.01,0,0,0,0.01,0.186520516872406,9.83470916748047,1.06586849689484,0.01,0,0,0,0.01,0,0,0,0.01
1.65548676877072E+018,103,1.65548676877038E+018,vectornav,0.009553397074342,0.743648707866669,-0.668497085571289,0.002671041991562,0,0,0,0,0,0,0,0,0,0.001707202172838,-0.000566845061257,0.000135375128593,0.01,0,0,0,0.01,0,0,0,0.01,0.146745443344116,9.84266948699951,1.07840871810913,0.01,0,0,0,0.01,0,0,0,0.01
1.65548676879485E+018,104,1.65548676879451E+018,vectornav,0.009557455778122,0.743651032447815,-0.668494403362274,0.002665282925591,0,0,0,0,0,0,0,0,0,-0.000136351591209,1.46185047924519E-05,-0.000682006939314,0.01,0,0,0,0.01,0,0,0,0.01,0.159334942698479,9.84068489074707,1.05720925331116,0.01,0,0,0,0.01,0,0,0,0.01
1.65548676882061E+018,105,1.65548676882035E+018,vectornav,0.009557996876538,0.743647754192352,-0.668498039245606,0.002664057305083,0,0,0,0,0,0,0,0,0,0.000289791787509,-0.000504752388224,8.54427926242352E-05,0.01,0,0,0,0.01,0,0,0,0.01,0.174202084541321,9.83144664764404,1.07275474071503,0.01,0,0,0,0.01,0,0,0,0.01
1.65548676884468E+018,106,1.65548676884442E+018,vectornav,0.009555689059198,0.743645250797272,-0.668500900268555,0.002660393947735,0,0,0,0,0,0,0,0,0,0.000817992200609,-0.000321429688483,-0.000484485848574,0.01,0,0,0,0.01,0,0,0,0.01,0.166951894760132,9.81186866760254,1.03773784637451,0.01,0,0,0,0.01,0,0,0,0.01
1.65548676887056E+018,107,1.65548676887032E+018,vectornav,0.009562040679157,0.7436443567276,-0.668501734733581,0.002657627454028,0,0,0,0,0,0,0,0,0,0.001018573879264,0.001472558360547,-0.0003442610614,0.01,0,0,0,0.01,0,0,0,0.01,0.178869619965553,9.80620384216309,1.05755352973938,0.01,0,0,0,0.01,0,0,0,0.01
1.65548676889473E+018,108,1.6554867688944E+018,vectornav,0.009554439224303,0.743640720844269,-0.668505847454071,0.002665708772838,0,0,0,0,0,0,0,0,0,0.001945284078829,-0.000529997283593,0.000585794448853,0.01,0,0,0,0.01,0,0,0,0.01,0.172779709100723,9.82272529602051,1.05824303627014,0.01,0,0,0,0.01,0,0,0,0.01
1.65548676892057E+018,109,1.65548676892026E+018,vectornav,0.009540964849293,0.743638575077057,-0.668508470058441,0.002675506053492,0,0,0,0,0,0,0,0,0,-0.000997845083475,-0.000627574510872,0.00045943382429,0.01,0,0,0,0.01,0,0,0,0.01,0.165324375033379,9.83316707611084,1.0627167224884,0.01,0,0,0,0.01,0,0,0,0.01
1.65548676894569E+018,110,1.65548676894539E+018,vectornav,0.009541383944452,0.743638277053833,-0.66850882768631,0.002670414512977,0,0,0,0,0,0,0,0,0,-0.000404334074119,-0.000201537739486,-0.000614906835835,0.01,0,0,0,0.01,0,0,0,0.01,0.145273178815842,9.83392143249512,1.04505658149719,0.01,0,0,0,0.01,0,0,0,0.01
1.6554867689707E+018,111,1.6554867689704E+018,vectornav,0.009544082917273,0.743639826774597,-0.668507039546967,0.002676782896742,0,0,0,0,0,0,0,0,0,-0.000564218673389,0.000717743765563,0.00024427799508,0.01,0,0,0,0.01,0,0,0,0.01,0.179416954517365,9.82670497894287,1.05741810798645,0.01,0,0,0,0.01,0,0,0,0.01
1.65548676899565E+018,112,1.65548676899528E+018,vectornav,0.009543908759952,0.743639886379242,-0.668506979942322,0.002671249443665,0,0,0,0,0,0,0,0,0,0.000585653353482,0.001578501309268,0.00157305621542,0.01,0,0,0,0.01,0,0,0,0.01,0.180761590600014,9.82201480865479,1.05311989784241,0.01,0,0,0,0.01,0,0,0,0.01
1.65548676902067E+018,113,1.65548676902032E+018,vectornav,0.009548477828503,0.743641078472137,-0.668505609035492,0.002661806764081,0,0,0,0,0,0,0,0,0,-0.000202201466891,8.04772134870291E-05,-0.000232343561947,0.01,0,0,0,0.01,0,0,0,0.01,0.16211698949337,9.82252407073975,1.05185389518738,0.01,0,0,0,0.01,0,0,0,0.01
1.65548676904567E+018,114,1.65548676904531E+018,vectornav,0.009542853571475,0.743641674518585,-0.668504953384399,0.002668846631423,0,0,0,0,0,0,0,0,0,-0.000795586558525,-0.000165599165484,-0.000508840428665,0.01,0,0,0,0.01,0,0,0,0.01,0.187272384762764,9.79874229431152,1.08199048042297,0.01,0,0,0,0.01,0,0,0,0.01
1.65548676907056E+018,115,1.65548676907026E+018,vectornav,0.009535048156977,0.743641376495361,-0.668505370616913,0.002670228248462,0,0,0,0,0,0,0,0,0,-0.000572699762415,-2.17084307223558E-05,-0.000126874598209,0.01,0,0,0,0.01,0,0,0,0.01,0.147700563073158,9.8193531036377,1.03688812255859,0.01,0,0,0,0.01,0,0,0,0.01
1.65548676909571E+018,116,1.65548676909537E+018,vectornav,0.009533402509987,0.743642091751099,-0.668504595756531,0.002672777976841,0,0,0,0,0,0,0,0,0,0.000351716880687,0.000353279523551,-0.000498979003169,0.01,0,0,0,0.01,0,0,0,0.01,0.174232304096222,9.83009624481201,1.04978764057159,0.01,0,0,0,0.01,0,0,0,0.01
1.65548676912057E+018,117,1.65548676912027E+018,vectornav,0.009530962444842,0.743643879890442,-0.668502748012543,0.002678929129615,0,0,0,0,0,0,0,0,0,-0.00058841885766,0.000588543014601,0.000678847718518,0.01,0,0,0,0.01,0,0,0,0.01,0.18737605214119,9.8190336227417,1.07049608230591,0.01,0,0,0,0.01,0,0,0,0.01
1.65548676914563E+018,118,1.6554867691453E+018,vectornav,0.00953989289701,0.743649661540985,-0.668496072292328,0.002682282822207,0,0,0,0,0,0,0,0,0,-0.001020999276079,6.14174641668796E-05,0.000560909102205,0.01,0,0,0,0.01,0,0,0,0.01,0.178404659032822,9.8394660949707,1.06046032905579,0.01,0,0,0,0.01,0,0,0,0.01
1.65548676917079E+018,119,1.65548676917038E+018,vectornav,0.009535748511553,0.743650376796722,-0.668495357036591,0.002681223442778,0,0,0,0,0,0,0,0,0,-0.000323813932482,0.00040104216896,-0.000124983780552,0.01,0,0,0,0.01,0,0,0,0.01,0.161028519272804,9.8386697769165,1.03127646446228,0.01,0,0,0,0.01,0,0,0,0.01
1.65548676919555E+018,120,1.65548676919534E+018,vectornav,0.009542234241962,0.743651211261749,-0.668494343757629,0.002677430864424,0,0,0,0,0,0,0,0,0,-0.000131743770908,0.000703873578459,0.000123769917991,0.01,0,0,0,0.01,0,0,0,0.01,0.170690178871155,9.83287620544434,1.0459942817688,0.01,0,0,0,0.01,0,0,0,0.01
1.65548676922044E+018,121,1.65548676922024E+018,vectornav,0.009529029019177,0.74365496635437,-0.668490350246429,0.002681173849851,0,0,0,0,0,0,0,0,0,-0.000273670710158,0.000584837049246,-0.000313816184644,0.01,0,0,0,0.01,0,0,0,0.01,0.176622927188873,9.85127258300781,1.05595445632935,0.01,0,0,0,0.01,0,0,0,0.01
1.65548676924549E+018,122,1.65548676924524E+018,vectornav,0.009533188305795,0.743657290935516,-0.668487727642059,0.00267608393915,0,0,0,0,0,0,0,0,0,0.000260819273535,0.000439434079453,1.90339051187038E-05,0.01,0,0,0,0.01,0,0,0,0.01,0.161238685250282,9.84726715087891,1.03907251358032,0.01,0,0,0,0.01,0,0,0,0.01
1.65548676927057E+018,123,1.65548676927028E+018,vectornav,0.009531900286675,0.743656277656555,-0.668488919734955,0.002677152166143,0,0,0,0,0,0,0,0,0,0.00038221658906,-0.000474178232253,0.000223419396207,0.01,0,0,0,0.01,0,0,0,0.01,0.17880329489708,9.81222343444824,1.03319382667542,0.01,0,0,0,0.01,0,0,0,0.01
1.65548676929565E+018,124,1.65548676929534E+018,vectornav,0.009532771073282,0.743655681610107,-0.668489515781403,0.002676038304344,0,0,0,0,0,0,0,0,0,-3.83125297958031E-05,0.000348821282387,0.001012668479234,0.01,0,0,0,0.01,0,0,0,0.01,0.176336139440537,9.81843757629395,1.04410207271576,0.01,0,0,0,0.01,0,0,0,0.01
1.65548676932065E+018,125,1.65548676932029E+018,vectornav,0.009521282278001,0.743657290935516,-0.668487906455994,0.002688160398975,0,0,0,0,0,0,0,0,0,-0.000493462954182,0.000811986392364,0.001765401335433,0.01,0,0,0,0.01,0,0,0,0.01,0.164695248007774,9.84748840332031,1.04553580284119,0.01,0,0,0,0.01,0,0,0,0.01
1.65548676934555E+018,126,1.65548676934525E+018,vectornav,0.009525080211461,0.743658125400543,-0.668486833572388,0.00269436603412,0,0,0,0,0,0,0,0,0,-0.000773482955992,-0.000303271925077,0.000228146382142,0.01,0,0,0,0.01,0,0,0,0.01,0.156042546033859,9.85995292663574,1.03097403049469,0.01,0,0,0,0.01,0,0,0,0.01
1.65548676937055E+018,127,1.65548676937024E+018,vectornav,0.00951795745641,0.743654489517212,-0.668491005897522,0.002697224030271,0,0,0,0,0,0,0,0,0,-0.000930823502131,-0.000109827378765,0.00017388939159,0.01,0,0,0,0.01,0,0,0,0.01,0.175140082836151,9.80521011352539,1.05675101280212,0.01,0,0,0,0.01,0,0,0,0.01
1.65548676939554E+018,128,1.65548676939519E+018,vectornav,0.009512627497315,0.743659913539887,-0.6684849858284,0.002698027994484,0,0,0,0,0,0,0,0,0,-0.000279288127786,-2.36956402659416E-05,-0.000534912745934,0.01,0,0,0,0.01,0,0,0,0.01,0.186208814382553,9.83826065063477,1.03273296356201,0.01,0,0,0,0.01,0,0,0,0.01
1.65548676942053E+018,129,1.65548676942018E+018,vectornav,0.009522572159767,0.743661165237427,-0.668483555316925,0.00269762147218,0,0,0,0,0,0,0,0,0,0.000455132918432,-0.000540097244084,0.000961522688158,0.01,0,0,0,0.01,0,0,0,0.01,0.157475829124451,9.81930541992188,1.0512261390686,0.01,0,0,0,0.01,0,0,0,0.01
1.65548676944542E+018,130,1.65548676944512E+018,vectornav,0.009531514719129,0.74365907907486,-0.668485701084137,0.002692050300539,0,0,0,0,0,0,0,0,0,0.000384729646612,-0.000735162058845,-8.64664907567203E-05,0.01,0,0,0,0.01,0,0,0,0.01,0.1967743486166,9.8005542755127,1.05954623222351,0.01,0,0,0,0.01,0,0,0,0.01
1.65548676947043E+018,131,1.65548676947019E+018,vectornav,0.009527271613479,0.743656635284424,-0.668488502502441,0.002689312910661,0,0,0,0,0,0,0,0,0,0.000804542913102,-0.000302273314446,0.000651396112517,0.01,0,0,0,0.01,0,0,0,0.01,0.188412696123123,9.83990478515625,1.05090379714966,0.01,0,0,0,0.01,0,0,0,0.01
1.65548676949551E+018,132,1.65548676949517E+018,vectornav,0.009539649821818,0.743656575679779,-0.668488442897797,0.002681593876332,0,0,0,0,0,0,0,0,0,0.00040440284647,0.000298255588859,-0.000419256743044,0.01,0,0,0,0.01,0,0,0,0.01,0.191701680421829,9.81789302825928,1.07906484603882,0.01,0,0,0,0.01,0,0,0,0.01
1.6554867695205E+018,133,1.65548676952018E+018,vectornav,0.009541450999677,0.743657648563385,-0.668487250804901,0.002678001997992,0,0,0,0,0,0,0,0,0,5.56244631297886E-05,0.00107025471516,-0.0009759341483,0.01,0,0,0,0.01,0,0,0,0.01,0.181135207414627,9.81495571136475,1.05293905735016,0.01,0,0,0,0.01,0,0,0,0.01
1.65548676954539E+018,134,1.6554867695451E+018,vectornav,0.0095358742401,0.743657410144806,-0.668487548828125,0.002676619915292,0,0,0,0,0,0,0,0,0,0.00012138854072,0.001109336270019,-0.001107661286369,0.01,0,0,0,0.01,0,0,0,0.01,0.155799835920334,9.82722949981689,1.02938163280487,0.01,0,0,0,0.01,0,0,0,0.01
1.65548676957047E+018,135,1.65548676957017E+018,vectornav,0.009541834704578,0.743658542633056,-0.668486177921295,0.00267303804867,0,0,0,0,0,0,0,0,0,-0.000771461054683,6.01522624492645E-05,-0.000389421591535,0.01,0,0,0,0.01,0,0,0,0.01,0.163381636142731,9.84316730499268,1.04712510108948,0.01,0,0,0,0.01,0,0,0,0.01
1.65548676959576E+018,136,1.65548676959536E+018,vectornav,0.009535645134747,0.743661642074585,-0.668482840061188,0.002677950076759,0,0,0,0,0,0,0,0,0,-0.000835155602545,-0.000354117713869,-0.000389982538763,0.01,0,0,0,0.01,0,0,0,0.01,0.191419258713722,9.81291198730469,1.0587249994278,0.01,0,0,0,0.01,0,0,0,0.01
1.65548676962046E+018,137,1.65548676962014E+018,vectornav,0.009542379528284,0.743663132190704,-0.668481111526489,0.002674449933693,0,0,0,0,0,0,0,0,0,0.000402374193072,0.000606214394793,-1.1197233106941E-05,0.01,0,0,0,0.01,0,0,0,0.01,0.174367785453796,9.84919357299805,1.04481053352356,0.01,0,0,0,0.01,0,0,0,0.01
1.6554867696455E+018,138,1.65548676964514E+018,vectornav,0.009542028419673,0.743665039539337,-0.668479025363922,0.002669054083526,0,0,0,0,0,0,0,0,0,-0.000921621161979,0.00069706980139,-0.000171393970959,0.01,0,0,0,0.01,0,0,0,0.01,0.161305159330368,9.83408546447754,1.0625091791153,0.01,0,0,0,0.01,0,0,0,0.01
1.65548676967036E+018,139,1.65548676967015E+018,vectornav,0.009538345038891,0.743663311004639,-0.6684809923172,0.002659422811121,0,0,0,0,0,0,0,0,0,0.000268162810244,-0.000204445095733,0.000227884680498,0.01,0,0,0,0.01,0,0,0,0.01,0.167142421007156,9.84071254730225,1.04480910301209,0.01,0,0,0,0.01,0,0,0,0.01
1.65548676969543E+018,140,1.65548676969512E+018,vectornav,0.00953555945307,0.743665814399719,-0.668478310108185,0.002656584605575,0,0,0,0,0,0,0,0,0,-8.45244067022577E-05,0.000196099979803,-0.000101780344266,0.01,0,0,0,0.01,0,0,0,0.01,0.157820284366608,9.85636043548584,1.03575754165649,0.01,0,0,0,0.01,0,0,0,0.01
1.65548676972032E+018,141,1.65548676972006E+018,vectornav,0.009535921737552,0.743672251701355,-0.668471157550812,0.002656549448147,0,0,0,0,0,0,0,0,0,-0.000496022345033,0.000520874513313,3.95800452679396E-06,0.01,0,0,0,0.01,0,0,0,0.01,0.150499314069748,9.82382202148438,1.06141591072083,0.01,0,0,0,0.01,0,0,0,0.01
1.65548676974536E+018,142,1.65548676974512E+018,vectornav,0.009528471156955,0.743672788143158,-0.668470680713654,0.002656128723174,0,0,0,0,0,0,0,0,0,0.000391708919778,0.000253682024777,-0.000379102362785,0.01,0,0,0,0.01,0,0,0,0.01,0.154630079865456,9.79086971282959,1.06024122238159,0.01,0,0,0,0.01,0,0,0,0.01
1.65548676977042E+018,143,1.65548676977013E+018,vectornav,0.009529080241919,0.743673801422119,-0.668469488620758,0.002649049740285,0,0,0,0,0,0,0,0,0,-0.001221540849656,6.54472969472408E-05,-0.000587963324506,0.01,0,0,0,0.01,0,0,0,0.01,0.186896994709969,9.81127738952637,1.0501583814621,0.01,0,0,0,0.01,0,0,0,0.01
1.65548676979539E+018,144,1.65548676979508E+018,vectornav,0.009517128579319,0.743673443794251,-0.668470025062561,0.002661902224645,0,0,0,0,0,0,0,0,0,-0.000177208348759,0.000220789574087,-0.000259413849562,0.01,0,0,0,0.01,0,0,0,0.01,0.179311901330948,9.82891941070557,1.06896483898163,0.01,0,0,0,0.01,0,0,0,0.01
1.65548676982041E+018,145,1.65548676982012E+018,vectornav,0.009508480317891,0.743674337863922,-0.668469130992889,0.00266449782066,0,0,0,0,0,0,0,0,0,0.000435617286712,0.001737675745972,0.000342420767993,0.01,0,0,0,0.01,0,0,0,0.01,0.171664208173752,9.81327533721924,1.04762327671051,0.01,0,0,0,0.01,0,0,0,0.01
1.65548676984534E+018,146,1.65548676984507E+018,vectornav,0.009506182745099,0.743673801422119,-0.668469846248627,0.00266728666611,0,0,0,0,0,0,0,0,0,-0.001013431930915,0.001130284043029,1.62996584549546E-05,0.01,0,0,0,0.01,0,0,0,0.01,0.159370571374893,9.82778549194336,1.0404646396637,0.01,0,0,0,0.01,0,0,0,0.01
1.65548676987051E+018,147,1.65548676987007E+018,vectornav,0.009500643238425,0.743674576282501,-0.668469071388245,0.002671353286132,0,0,0,0,0,0,0,0,0,8.77575512276962E-05,0.000855902442709,0.000267069612164,0.01,0,0,0,0.01,0,0,0,0.01,0.175922572612762,9.82312107086182,1.06728839874268,0.01,0,0,0,0.01,0,0,0,0.01
1.65548676989544E+018,148,1.65548676989508E+018,vectornav,0.009514555335045,0.743669033050537,-0.668474912643433,0.002664677798748,0,0,0,0,0,0,0,0,0,0.000687279854901,-2.4671433493495E-05,0.000849155010656,0.01,0,0,0,0.01,0,0,0,0.01,0.155459523200989,9.8527717590332,1.05338931083679,0.01,0,0,0,0.01,0,0,0,0.01
1.6554867699203E+018,149,1.65548676992007E+018,vectornav,0.009517392143607,0.743666768074035,-0.668477416038513,0.002668695757166,0,0,0,0,0,0,0,0,0,0.000401767640142,-0.000759609043598,0.001420633634552,0.01,0,0,0,0.01,0,0,0,0.01,0.161492079496384,9.80149269104004,1.05123662948608,0.01,0,0,0,0.01,0,0,0,0.01
1.65548676994518E+018,150,1.65548676994501E+018,vectornav,0.009517752565444,0.743664860725403,-0.668479561805725,0.002661035163328,0,0,0,0,0,0,0,0,0,0.00107524683699,0.000727335456759,-0.000870294810738,0.01,0,0,0,0.01,0,0,0,0.01,0.177176892757416,9.7675666809082,1.04031622409821,0.01,0,0,0,0.01,0,0,0,0.01
1.65548676997032E+018,151,1.65548676997002E+018,vectornav,0.009513315744698,0.74366706609726,-0.668477237224579,0.002666631247848,0,0,0,0,0,0,0,0,0,0.000831327284686,0.000176262110472,-6.38484489172697E-05,0.01,0,0,0,0.01,0,0,0,0.01,0.145419985055923,9.79085350036621,1.05786764621735,0.01,0,0,0,0.01,0,0,0,0.01
1.65548676999546E+018,152,1.65548676999509E+018,vectornav,0.009517524391413,0.743668973445892,-0.668475031852722,0.002656316384673,0,0,0,0,0,0,0,0,0,0.000437753013102,-0.000364846084267,-0.000404513149988,0.01,0,0,0,0.01,0,0,0,0.01,0.180280640721321,9.81077671051025,1.0565390586853,0.01,0,0,0,0.01,0,0,0,0.01
1.65548677002041E+018,153,1.65548677002016E+018,vectornav,0.009516363032162,0.74367219209671,-0.66847151517868,0.002657780889422,0,0,0,0,0,0,0,0,0,-0.000174231157871,0.000286764232442,0.000803139526397,0.01,0,0,0,0.01,0,0,0,0.01,0.163144454360008,9.84630966186523,1.04592251777649,0.01,0,0,0,0.01,0,0,0,0.01
1.65548677004527E+018,154,1.65548677004502E+018,vectornav,0.009515176527202,0.743674337863922,-0.668469071388245,0.00265950569883,0,0,0,0,0,0,0,0,0,-0.000736081332434,-0.000179049558938,-0.00013692479115,0.01,0,0,0,0.01,0,0,0,0.01,0.156617641448975,9.82083320617676,1.04543197154999,0.01,0,0,0,0.01,0,0,0,0.01
1.65548677007032E+018,155,1.65548677007E+018,vectornav,0.009514775127172,0.7436763048172,-0.668466925621033,0.002667144872248,0,0,0,0,0,0,0,0,0,-0.000531667436007,0.000540235778317,0.001542221289128,0.01,0,0,0,0.01,0,0,0,0.01,0.180110320448875,9.84914302825928,1.05873906612396,0.01,0,0,0,0.01,0,0,0,0.01
1.65548677009532E+018,156,1.65548677009498E+018,vectornav,0.009526149369776,0.743676006793976,-0.668467104434967,0.002663178369403,0,0,0,0,0,0,0,0,0,-0.000335809425451,-0.000852662837133,-0.001048871083185,0.01,0,0,0,0.01,0,0,0,0.01,0.182442262768745,9.81452655792236,1.03952383995056,0.01,0,0,0,0.01,0,0,0,0.01
1.65548677012022E+018,157,1.65548677011993E+018,vectornav,0.009528419934213,0.743675529956818,-0.668467581272125,0.002666915766895,0,0,0,0,0,0,0,0,0,0.000557518796995,0.000468989135697,0.000564266112633,0.01,0,0,0,0.01,0,0,0,0.01,0.155611947178841,9.83539581298828,1.04102897644043,0.01,0,0,0,0.01,0,0,0,0.01
1.65548677014524E+018,158,1.65548677014494E+018,vectornav,0.00953514687717,0.743679165840149,-0.668463468551636,0.002654873067513,0,0,0,0,0,0,0,0,0,0.000153613145812,-1.97184272110462E-06,-0.000827838666737,0.01,0,0,0,0.01,0,0,0,0.01,0.184813410043716,9.77139472961426,1.06436634063721,0.01,0,0,0,0.01,0,0,0,0.01
1.65548677017028E+018,159,1.65548677017001E+018,vectornav,0.009531246498227,0.743677020072937,-0.668465852737427,0.002659543650225,0,0,0,0,0,0,0,0,0,0.000400122749852,-0.000686563784257,-2.14886968024075E-05,0.01,0,0,0,0.01,0,0,0,0.01,0.17573806643486,9.82248115539551,1.0495343208313,0.01,0,0,0,0.01,0,0,0,0.01
1.65548677019523E+018,160,1.65548677019495E+018,vectornav,0.009529531002045,0.743675351142883,-0.668467819690704,0.002659658202901,0,0,0,0,0,0,0,0,0,-0.000130333384732,-0.000611047958955,-0.000257606676314,0.01,0,0,0,0.01,0,0,0,0.01,0.172302529215813,9.83352661132813,1.03599572181702,0.01,0,0,0,0.01,0,0,0,0.01
1.65548677022026E+018,161,1.6554867702199E+018,vectornav,0.009543867781758,0.743677854537964,-0.668464779853821,0.002651066984981,0,0,0,0,0,0,0,0,0,-0.000231036610785,0.00098381889984,0.00074352795491,0.01,0,0,0,0.01,0,0,0,0.01,0.150237336754799,9.79535865783691,1.04028081893921,0.01,0,0,0,0.01,0,0,0,0.01
1.65548677024526E+018,162,1.65548677024495E+018,vectornav,0.00953447073698,0.743676066398621,-0.668466925621033,0.002658310346305,0,0,0,0,0,0,0,0,0,0.00010938772175,-0.000739888520911,0.000811950711068,0.01,0,0,0,0.01,0,0,0,0.01,0.17738975584507,9.82942008972168,1.04671812057495,0.01,0,0,0,0.01,0,0,0,0.01
1.65548677027024E+018,163,1.65548677026993E+018,vectornav,0.009544079191983,0.743675112724304,-0.668467819690704,0.002650031121448,0,0,0,0,0,0,0,0,0,0.001012478256598,0.000555134145543,-0.000989205669612,0.01,0,0,0,0.01,0,0,0,0.01,0.176691874861717,9.82448959350586,1.04563868045807,0.01,0,0,0,0.01,0,0,0,0.01
1.65548677029526E+018,164,1.65548677029494E+018,vectornav,0.009545517154038,0.743677914142608,-0.668464660644531,0.00265510706231,0,0,0,0,0,0,0,0,0,0.000297515944112,0.000529307173565,8.55911639519036E-05,0.01,0,0,0,0.01,0,0,0,0.01,0.175414562225342,9.830397605896,1.05551314353943,0.01,0,0,0,0.01,0,0,0,0.01
1.65548677032025E+018,165,1.65548677031991E+018,vectornav,0.009545710869133,0.743670642375946,-0.668472826480866,0.00265856902115,0,0,0,0,0,0,0,0,0,-0.000471774546895,0.001063863746822,0.000420065072831,0.01,0,0,0,0.01,0,0,0,0.01,0.166354462504387,9.84464836120606,1.02691686153412,0.01,0,0,0,0.01,0,0,0,0.01
1.65548677034524E+018,166,1.65548677034492E+018,vectornav,0.00954853463918,0.743668973445892,-0.668474614620209,0.002654098207131,0,0,0,0,0,0,0,0,0,0.000599628314376,-0.000149679835886,-0.000590268173255,0.01,0,0,0,0.01,0,0,0,0.01,0.173847556114197,9.82794380187988,1.04430222511292,0.01,0,0,0,0.01,0,0,0,0.01
1.65548677037024E+018,167,1.65548677036993E+018,vectornav,0.009537988342345,0.743670344352722,-0.668473184108734,0.002660719444975,0,0,0,0,0,0,0,0,0,0.00061009300407,-0.000517244683579,-7.92998471297324E-05,0.01,0,0,0,0.01,0,0,0,0.01,0.146611452102661,9.80575942993164,1.04021036624908,0.01,0,0,0,0.01,0,0,0,0.01
1.65548677039526E+018,168,1.6554867703949E+018,vectornav,0.009548378176987,0.743666589260101,-0.668477237224579,0.002654540352523,0,0,0,0,0,0,0,0,0,0.00150979438331,-0.000674253562465,-0.000525710871443,0.01,0,0,0,0.01,0,0,0,0.01,0.197436898946762,9.83224105834961,1.06686806678772,0.01,0,0,0,0.01,0,0,0,0.01
1.65548677042021E+018,169,1.65548677041984E+018,vectornav,0.009549079462886,0.74366158246994,-0.668482840061188,0.002650465117767,0,0,0,0,0,0,0,0,0,-0.000503228977323,-0.000297519378364,-0.000244731723797,0.01,0,0,0,0.01,0,0,0,0.01,0.155552551150322,9.79506874084473,1.05729055404663,0.01,0,0,0,0.01,0,0,0,0.01
1.65548677044516E+018,170,1.65548677044486E+018,vectornav,0.00955487601459,0.743657410144806,-0.66848748922348,0.002644733758643,0,0,0,0,0,0,0,0,0,-0.000219721827307,0.00134660047479,0.00055671663722,0.01,0,0,0,0.01,0,0,0,0.01,0.17449277639389,9.81638908386231,1.04820895195007,0.01,0,0,0,0.01,0,0,0,0.01
1.65548677047022E+018,171,1.65548677046989E+018,vectornav,0.009549651294947,0.743654727935791,-0.668490409851074,0.002649606205523,0,0,0,0,0,0,0,0,0,0.000465873803478,-0.000821406720206,-0.000244554830715,0.01,0,0,0,0.01,0,0,0,0.01,0.167955741286278,9.86482048034668,1.04783642292023,0.01,0,0,0,0.01,0,0,0,0.01
1.6554867704952E+018,172,1.65548677049487E+018,vectornav,0.009563487954438,0.743652880191803,-0.668492436408997,0.002637603320181,0,0,0,0,0,0,0,0,0,0.000783868541475,-0.001122857676819,0.000185176148079,0.01,0,0,0,0.01,0,0,0,0.01,0.179779395461082,9.81693077087402,1.05291593074799,0.01,0,0,0,0.01,0,0,0,0.01
1.65548677052014E+018,173,1.65548677051983E+018,vectornav,0.009565693326294,0.743649065494537,-0.668496549129486,0.002637617057189,0,0,0,0,0,0,0,0,0,-0.001429102849215,-0.000186638208106,-0.000693870941177,0.01,0,0,0,0.01,0,0,0,0.01,0.170128554105759,9.83669471740723,1.05819237232208,0.01,0,0,0,0.01,0,0,0,0.01
1.65548677054516E+018,174,1.65548677054487E+018,vectornav,0.009563694708049,0.743647813796997,-0.668497920036316,0.002641268074512,0,0,0,0,0,0,0,0,0,0.000838073610794,0.000329956645146,-0.000385531631764,0.01,0,0,0,0.01,0,0,0,0.01,0.157355159521103,9.84760665893555,1.04722476005554,0.01,0,0,0,0.01,0,0,0,0.01
1.65548677057016E+018,175,1.65548677056983E+018,vectornav,0.009555665776134,0.743647992610931,-0.668497920036316,0.002641979372129,0,0,0,0,0,0,0,0,0,0.000250227923971,-0.001302434597164,-0.000907933805138,0.01,0,0,0,0.01,0,0,0,0.01,0.146942913532257,9.84716415405273,1.06163311004639,0.01,0,0,0,0.01,0,0,0,0.01
1.65548677059522E+018,176,1.65548677059487E+018,vectornav,0.009559988975525,0.743652164936066,-0.668493270874023,0.002644102554768,0,0,0,0,0,0,0,0,0,-4.7097128117457E-05,-0.001214729389176,0.000114448310342,0.01,0,0,0,0.01,0,0,0,0.01,0.175632268190384,9.80304527282715,1.05850946903229,0.01,0,0,0,0.01,0,0,0,0.01
1.65548677062011E+018,177,1.65548677061981E+018,vectornav,0.009556190110743,0.743650376796722,-0.668495178222656,0.002647341927513,0,0,0,0,0,0,0,0,0,-0.000692364061251,-0.000931022921577,8.13105143606663E-05,0.01,0,0,0,0.01,0,0,0,0.01,0.17175866663456,9.85454082489014,1.04372143745422,0.01,0,0,0,0.01,0,0,0,0.01
1.65548677064522E+018,178,1.65548677064483E+018,vectornav,0.009548615664244,0.743650197982788,-0.668495535850525,0.00265001389198,0,0,0,0,0,0,0,0,0,-0.000481128459796,-0.000608448404819,-0.001020094496198,0.01,0,0,0,0.01,0,0,0,0.01,0.160846918821335,9.8157320022583,1.03125333786011,0.01,0,0,0,0.01,0,0,0,0.01
1.65548677067005E+018,179,1.65548677066977E+018,vectornav,0.009540634229779,0.743647933006287,-0.66849809885025,0.002647867426276,0,0,0,0,0,0,0,0,0,0.000933251692913,0.000777187524363,-0.000950749323238,0.01,0,0,0,0.01,0,0,0,0.01,0.167471051216126,9.83496475219727,1.06598377227783,0.01,0,0,0,0.01,0,0,0,0.01
1.65548677069509E+018,180,1.65548677069478E+018,vectornav,0.009552326053381,0.743647396564483,-0.668498575687408,0.002645643893629,0,0,0,0,0,0,0,0,0,-3.01790714729577E-06,-0.000264599686489,0.001154023455456,0.01,0,0,0,0.01,0,0,0,0.01,0.163766697049141,9.80276298522949,1.04447340965271,0.01,0,0,0,0.01,0,0,0,0.01
1.65548677072003E+018,181,1.65548677071978E+018,vectornav,0.009554516524076,0.743646383285522,-0.668499648571014,0.002646093489602,0,0,0,0,0,0,0,0,0,-0.000165867764736,-0.000536364736035,-0.000738861854188,0.01,0,0,0,0.01,0,0,0,0.01,0.179188907146454,9.81175518035889,1.06798362731934,0.01,0,0,0,0.01,0,0,0,0.01
1.65548677074493E+018,182,1.65548677074473E+018,vectornav,0.009546007029712,0.743642449378967,-0.668504178524017,0.002654899610206,0,0,0,0,0,0,0,0,0,0.000209639241803,-0.000714008230716,0.000124392507132,0.01,0,0,0,0.01,0,0,0,0.01,0.16511781513691,9.84446334838867,1.01858699321747,0.01,0,0,0,0.01,0,0,0,0.01
1.65548677077015E+018,183,1.65548677076987E+018,vectornav,0.009541343897581,0.743643999099731,-0.668502509593964,0.002656059339643,0,0,0,0,0,0,0,0,0,-0.000442794203991,-0.000174305401742,-0.000809407501947,0.01,0,0,0,0.01,0,0,0,0.01,0.16346463561058,9.81586170196533,1.03750336170197,0.01,0,0,0,0.01,0,0,0,0.01
1.65548677079503E+018,184,1.65548677079475E+018,vectornav,0.009548424743116,0.743641495704651,-0.668505132198334,0.002647149143741,0,0,0,0,0,0,0,0,0,0.000218822591705,-0.00012574554421,-0.000336126249749,0.01,0,0,0,0.01,0,0,0,0.01,0.186540797352791,9.80812644958496,1.04982876777649,0.01,0,0,0,0.01,0,0,0,0.01
1.65548677082007E+018,185,1.65548677081971E+018,vectornav,0.009552104398608,0.743642032146454,-0.668504595756531,0.002646786626428,0,0,0,0,0,0,0,0,0,-3.45685402862728E-05,-0.000299613457173,0.000143052544445,0.01,0,0,0,0.01,0,0,0,0.01,0.191063523292542,9.83326625823975,1.03614366054535,0.01,0,0,0,0.01,0,0,0,0.01
1.65548677084503E+018,186,1.65548677084474E+018,vectornav,0.009556761942804,0.743639945983887,-0.668506801128387,0.002645550761372,0,0,0,0,0,0,0,0,0,0.000580828462262,-0.000270644202828,-2.54497863352299E-05,0.01,0,0,0,0.01,0,0,0,0.01,0.189704656600952,9.84707069396973,1.04797959327698,0.01,0,0,0,0.01,0,0,0,0.01
1.65548677087001E+018,187,1.65548677086972E+018,vectornav,0.00955296959728,0.743638455867767,-0.668508529663086,0.002653968986124,0,0,0,0,0,0,0,0,0,0.000131506283651,0.001163478707895,0.000262119807303,0.01,0,0,0,0.01,0,0,0,0.01,0.18294994533062,9.82664012908936,1.04888355731964,0.01,0,0,0,0.01,0,0,0,0.01
1.65548677089494E+018,188,1.65548677089467E+018,vectornav,0.009556449018419,0.743634462356567,-0.668512880802155,0.002655065385625,0,0,0,0,0,0,0,0,0,0.000511438411195,-0.000190324848518,-0.000302082044072,0.01,0,0,0,0.01,0,0,0,0.01,0.162901014089584,9.79234504699707,1.05885744094849,0.01,0,0,0,0.01,0,0,0,0.01
1.65548677091997E+018,189,1.65548677091971E+018,vectornav,0.009549994021654,0.743636071681976,-0.668511152267456,0.002664321102202,0,0,0,0,0,0,0,0,0,-0.000167859805515,-0.00029877293855,-0.000373674731236,0.01,0,0,0,0.01,0,0,0,0.01,0.160815089941025,9.77840423583984,1.05619406700134,0.01,0,0,0,0.01,0,0,0,0.01
1.65548677094488E+018,190,1.65548677094462E+018,vectornav,0.009542730636895,0.743635475635529,-0.668511867523193,0.002676131436601,0,0,0,0,0,0,0,0,0,-0.001211809692904,-2.36623454838991E-05,-0.00041270517977,0.01,0,0,0,0.01,0,0,0,0.01,0.177990108728409,9.80302238464356,1.04103517532349,0.01,0,0,0,0.01,0,0,0,0.01
1.65548677096995E+018,191,1.65548677096962E+018,vectornav,0.009533422999084,0.743638336658478,-0.66850882768631,0.002688879147172,0,0,0,0,0,0,0,0,0,-0.000539096246939,-0.001091325189918,0.000633985677268,0.01,0,0,0,0.01,0,0,0,0.01,0.168714955449104,9.8206033706665,1.06668257713318,0.01,0,0,0,0.01,0,0,0,0.01
1.6554867709949E+018,192,1.65548677099466E+018,vectornav,0.009517136029899,0.743638694286346,-0.668508529663086,0.002708273706958,0,0,0,0,0,0,0,0,0,-0.001062385737896,0.000256937695667,-0.000114186201245,0.01,0,0,0,0.01,0,0,0,0.01,0.174224570393562,9.82046508789063,1.05740237236023,0.01,0,0,0,0.01,0,0,0,0.01
1.65548677101996E+018,193,1.6554867710196E+018,vectornav,0.009523313492537,0.743633389472961,-0.668514430522919,0.00270072533749,0,0,0,0,0,0,0,0,0,0.000193905929336,-0.000566066941246,-0.000204786192626,0.01,0,0,0,0.01,0,0,0,0.01,0.16756509244442,9.82158851623535,1.05199086666107,0.01,0,0,0,0.01,0,0,0,0.01
1.65548677104491E+018,194,1.65548677104464E+018,vectornav,0.009526807814837,0.743632733821869,-0.668515086174011,0.002696453826502,0,0,0,0,0,0,0,0,0,0.00054738734616,-0.000150765758008,0.000106303195935,0.01,0,0,0,0.01,0,0,0,0.01,0.168745040893555,9.83166313171387,1.03356122970581,0.01,0,0,0,0.01,0,0,0,0.01
